[
  {"name_ar": "أحمد السواق", "vehicle_type": "economy", "car_make": "تويوتا", "car_model": "كورولا", "plate": "ق أ ب 4521", "rating": 4.8, "acceptance_rate": 0.96, "lat": 30.0444, "lng": 31.2357, "status": "available"},
  {"name_ar": "محمود جابر", "vehicle_type": "economy", "car_make": "هيونداي", "car_model": "أكسنت", "plate": "ب ج د 9012", "rating": 4.6, "acceptance_rate": 0.92, "lat": 30.0522, "lng": 31.2461, "status": "available"},
  {"name_ar": "كريم فوزي", "vehicle_type": "comfort", "car_make": "نيسان", "car_model": "سنترا", "plate": "ج ح خ 3344", "rating": 4.9, "acceptance_rate": 0.97, "lat": 30.0281, "lng": 31.2015, "status": "available"},
  {"name_ar": "سيد مصطفى", "vehicle_type": "economy", "car_make": "شيفروليه", "car_model": "أوبترا", "plate": "د هـ و 7788", "rating": 4.5, "acceptance_rate": 0.9, "lat": 30.062, "lng": 31.22, "status": "available"},
  {"name_ar": "طارق أنور", "vehicle_type": "xl", "car_make": "هيونداي", "car_model": "اتش وان", "plate": "ز ح ط 1122", "rating": 4.7, "acceptance_rate": 0.94, "lat": 30.01, "lng": 31.19, "status": "available"},
  {"name_ar": "هشام رمضان", "vehicle_type": "scooter", "car_make": "هوندا", "car_model": "موتوسيكل", "plate": "س ص 55", "rating": 4.4, "acceptance_rate": 0.88, "lat": 30.05, "lng": 31.23, "status": "available"},
  {"name_ar": "وليد عادل", "vehicle_type": "economy", "car_make": "كيا", "car_model": "سيراتو", "plate": "ع غ ف 6677", "rating": 4.7, "acceptance_rate": 0.93, "lat": 29.96, "lng": 31.25, "status": "available"},
  {"name_ar": "ياسر إمام", "vehicle_type": "comfort", "car_make": "تويوتا", "car_model": "كامري", "plate": "ق ك ل 8899", "rating": 4.95, "acceptance_rate": 0.98, "lat": 30.08, "lng": 31.3, "status": "available"},
  {"name_ar": "عمرو حازم", "vehicle_type": "economy", "car_make": "فيات", "car_model": "تيبو", "plate": "م ن هـ 2233", "rating": 4.55, "acceptance_rate": 0.91, "lat": 30.04, "lng": 31.41, "status": "available"},
  {"name_ar": "باسم الديب", "vehicle_type": "economy", "car_make": "رينو", "car_model": "لوجان", "plate": "و ز 4455", "rating": 4.5, "acceptance_rate": 0.89, "lat": 30.09, "lng": 31.32, "status": "available"},
  {"name_ar": "شادي نبيل", "vehicle_type": "scooter", "car_make": "باجاج", "car_model": "بوكسر", "plate": "ح خ 88", "rating": 4.3, "acceptance_rate": 0.87, "lat": 30.03, "lng": 31.21, "status": "available"},
  {"name_ar": "رامي صلاح", "vehicle_type": "comfort", "car_make": "هيونداي", "car_model": "النترا", "plate": "ط ظ ع 5566", "rating": 4.85, "acceptance_rate": 0.95, "lat": 30.02, "lng": 31.38, "status": "available"},
  {"name_ar": "نادر سمير", "vehicle_type": "xl", "car_make": "تويوتا", "car_model": "برادو", "plate": "غ ف ق 9900", "rating": 4.72, "acceptance_rate": 0.93, "lat": 30.06, "lng": 31.35, "status": "available"},
  {"name_ar": "حسام علي", "vehicle_type": "economy", "car_make": "ميتسوبيشي", "car_model": "لانسر", "plate": "ب ت ث 7711", "rating": 4.6, "acceptance_rate": 0.9, "lat": 29.98, "lng": 31.13, "status": "available"},
  {"name_ar": "إسلام فاروق", "vehicle_type": "economy", "car_make": "سوزوكي", "car_model": "سويفت", "plate": "ج د ر 1200", "rating": 4.65, "acceptance_rate": 0.92, "lat": 30.07, "lng": 31.28, "status": "available"},
  {"name_ar": "مروان عطية", "vehicle_type": "comfort", "car_make": "مرسيدس", "car_model": "E180", "plate": "س ش ص 4321", "rating": 4.98, "acceptance_rate": 0.99, "lat": 30.045, "lng": 31.224, "status": "available"},
  {"name_ar": "فادي جورج", "vehicle_type": "economy", "car_make": "نيسان", "car_model": "صني", "plate": "ض ط ظ 5560", "rating": 4.52, "acceptance_rate": 0.9, "lat": 30.11, "lng": 31.4, "status": "available"},
  {"name_ar": "كمال عبدالله", "vehicle_type": "scooter", "car_make": "ياماها", "car_model": "في اس", "plate": "ع 1010", "rating": 4.4, "acceptance_rate": 0.86, "lat": 30.025, "lng": 31.19, "status": "available"},
  {"name_ar": "عادل رؤوف", "vehicle_type": "xl", "car_make": "كيا", "car_model": "كارنز", "plate": "ف ق ك 6670", "rating": 4.68, "acceptance_rate": 0.92, "lat": 30.015, "lng": 31.2, "status": "available"},
  {"name_ar": "مصطفى حلمي", "vehicle_type": "economy", "car_make": "هيونداي", "car_model": "فيرنا", "plate": "ل م ن 8891", "rating": 4.58, "acceptance_rate": 0.91, "lat": 30.035, "lng": 31.26, "status": "available"},
  {"name_ar": "هاني مراد", "vehicle_type": "comfort", "car_make": "بي إم دبليو", "car_model": "320i", "plate": "هـ و ز 2244", "rating": 4.9, "acceptance_rate": 0.96, "lat": 30.058, "lng": 31.34, "status": "available"},
  {"name_ar": "جمال سعد", "vehicle_type": "economy", "car_make": "تويوتا", "car_model": "يارس", "plate": "ح ط ظ 3311", "rating": 4.62, "acceptance_rate": 0.93, "lat": 30.02, "lng": 31.43, "status": "available"},
  {"name_ar": "سامح لطفي", "vehicle_type": "economy", "car_make": "شيري", "car_model": "أريزو", "plate": "غ ع غ 9090", "rating": 4.48, "acceptance_rate": 0.88, "lat": 29.99, "lng": 31.16, "status": "available"},
  {"name_ar": "الدكتور أيمن", "vehicle_type": "comfort", "car_make": "هيونداي", "car_model": "توسان", "plate": "ب ج ح 1188", "rating": 4.82, "acceptance_rate": 0.94, "lat": 30.048, "lng": 31.2, "status": "available"},
  {"name_ar": "عبدالرحمن ناصر", "vehicle_type": "scooter", "car_make": "هوندا", "car_model": "كليك", "plate": "د 2020", "rating": 4.35, "acceptance_rate": 0.85, "lat": 30.04, "lng": 31.24, "status": "available"},
  {"name_ar": "لؤي حسين", "vehicle_type": "xl", "car_make": "هيونداي", "car_model": "ستاريا", "plate": "ر ز س 7007", "rating": 4.75, "acceptance_rate": 0.95, "lat": 30.065, "lng": 31.33, "status": "available"},
  {"name_ar": "تامر الشناوي", "vehicle_type": "economy", "car_make": "نيسان", "car_model": "ميكرا", "plate": "ص ض ط 1441", "rating": 4.53, "acceptance_rate": 0.9, "lat": 30.01, "lng": 31.36, "status": "available"},
  {"name_ar": "زياد منير", "vehicle_type": "comfort", "car_make": "كيا", "car_model": "K5", "plate": "ظ ع غ 3030", "rating": 4.88, "acceptance_rate": 0.97, "lat": 30.033, "lng": 31.23, "status": "available"},
  {"name_ar": "رامز وفيق", "vehicle_type": "economy", "car_make": "هيونداي", "car_model": "i10", "plate": "ف ق ب 5151", "rating": 4.57, "acceptance_rate": 0.91, "lat": 30.075, "lng": 31.27, "status": "available"},
  {"name_ar": "سامي رافت", "vehicle_type": "economy", "car_make": "تويوتا", "car_model": "رايز", "plate": "ك ل م 8880", "rating": 4.7, "acceptance_rate": 0.92, "lat": 30.042, "lng": 31.39, "status": "available"},
  {"name_ar": "عمر الدسوقي", "vehicle_type": "scooter", "car_make": "هوندا", "car_model": "بي سي إكس", "plate": "ن 7070", "rating": 4.42, "acceptance_rate": 0.87, "lat": 30.055, "lng": 31.21, "status": "available"}
]
